City_ID,City,Lat,Lng,Max Temp,Humidity,Cloudiness,Wind Speed,Country,Date
0,hamilton,39.1834,-84.5333,27.8,70,75,4.63,US,1724007002
1,blackmans bay,-43.0167,147.3167,3.07,91,35,0.89,AU,1724007159
2,iskateley,67.6803,53.1512,6.59,93,80,3.37,RU,1724007160
3,saposoa,-6.934,-76.7716,34.83,33,32,1.75,PE,1724007161
4,mossel bay,-34.1831,22.146,11.96,74,0,1.47,ZA,1724007163
5,mangaratiba,-22.9597,-44.0406,24.56,54,0,0.72,BR,1724007164
6,vanimo,-2.6741,141.3028,25.36,90,100,1.68,PG,1724007165
7,olonkinbyen,70.9221,-8.7187,5.91,91,100,3.76,SJ,1724007166
8,haslett,42.747,-84.4011,21.63,92,100,3.6,US,1724007000
9,kapuskasing,49.4169,-82.4331,20.0,45,75,7.2,CA,1724007169
10,grytviken,-54.2811,-36.5092,-1.65,70,99,5.4,GS,1724007170
11,puerto natales,-51.7236,-72.4875,7.25,61,75,8.23,CL,1724007171
12,belmonte,-15.8631,-38.8828,24.72,74,24,3.32,BR,1724007133
13,iquique,-20.2208,-70.1431,18.12,71,13,2.83,CL,1724007043
14,bandarbeyla,9.4942,50.8122,25.54,79,12,15.08,SO,1724007175
15,ushuaia,-54.8,-68.3,5.81,81,75,12.35,AR,1724006988
16,adamstown,-25.066,-130.1015,17.88,62,88,6.62,PN,1724007177
17,la passe,45.5549,-0.8967,18.36,67,0,5.95,FR,1724007178
18,port elizabeth,-33.918,25.5701,16.84,80,20,2.57,ZA,1724006892
19,anloga,5.7947,0.8973,24.65,84,5,6.32,GH,1724007181
20,edinburgh of the seven seas,-37.0676,-12.3116,9.78,65,52,11.19,SH,1724007182
21,qaqortoq,60.7167,-46.0333,6.13,73,1,2.08,GL,1724007183
22,alice springs,-23.7,133.8833,19.75,28,1,3.6,AU,1724007184
23,stanley,54.868,-1.6985,15.29,64,20,6.17,GB,1724007185
24,puerto ayora,-0.7393,-90.3518,20.86,87,53,4.02,EC,1724007187
25,longyearbyen,78.2186,15.6401,10.91,87,75,0.0,SJ,1724007188
26,tiksi,71.6872,128.8694,8.96,94,1,3.85,RU,1724007189
27,tilcara,-23.5776,-65.3509,19.48,15,0,0.37,AR,1724007190
28,bredasdorp,-34.5322,20.0403,10.22,90,9,1.95,ZA,1724007191
29,port mathurin,-19.6833,63.4167,22.54,71,41,12.29,MU,1724007193
30,the village,35.5609,-97.5514,39.86,39,0,3.6,US,1724007194
31,isafjordur,66.0755,-23.124,8.02,71,75,4.63,IS,1724007195
32,iqaluit,63.7506,-68.5145,13.85,62,75,6.69,CA,1724007197
33,makokou,0.5738,12.8642,22.2,89,100,1.49,GA,1724007199
34,newman,37.3138,-121.0208,26.14,29,0,0.57,US,1724007200
35,harper,4.375,-7.7169,24.29,79,7,3.53,LR,1724007201
36,klyuchi,52.2667,79.1667,16.53,68,82,3.5,RU,1724007202
37,vicuna,-30.0319,-70.7081,19.07,39,92,1.34,CL,1724007203
38,thompson,55.7435,-97.8558,17.09,67,75,4.12,CA,1724007205
39,haiku-pauwela,20.9219,-156.3051,27.9,74,40,8.23,US,1724007206
40,adrar,20.5022,-10.0711,31.91,51,98,5.36,MR,1724007207
41,arno,60.1167,18.6333,16.9,59,100,5.38,SE,1724007208
42,port lincoln,-34.7333,135.8667,13.07,84,100,8.54,AU,1724007209
43,port-aux-francais,-49.35,70.2167,2.56,79,11,12.11,TF,1724007210
44,albany,42.6001,-73.9662,24.14,80,100,4.0,US,1724007212
45,egilsstadir,65.2653,-14.3948,7.95,66,75,9.26,IS,1724007213
46,ballina,-28.8667,153.5667,13.04,90,34,4.63,AU,1724007214
47,talnakh,69.4865,88.3972,14.15,76,100,1.5,RU,1724007215
48,vilyuysk,63.7553,121.6247,11.26,54,24,2.13,RU,1724007216
49,luderitz,-26.6481,15.1594,16.17,58,0,6.72,NA,1724007218
50,wynyard,-41.0,145.7167,5.75,91,7,1.76,AU,1724007219
51,anna regina,7.2644,-58.5077,30.12,62,2,3.97,GY,1724007220
52,nema,57.5067,50.5011,12.3,98,65,1.98,RU,1724007221
53,punta arenas,-53.15,-70.9167,8.06,66,20,10.8,CL,1724006933
54,cheremukhovo,60.3484,59.9851,10.06,94,9,1.38,RU,1724007224
55,rio grande,-32.035,-52.0986,15.71,98,100,6.96,BR,1724006995
56,saldanha,-33.0117,17.9442,11.03,86,90,1.08,ZA,1724007226
57,bardsir,29.9227,56.5743,26.42,31,55,0.82,IR,1724007227
58,broome,42.2506,-75.833,27.06,75,75,5.14,US,1724007228
59,college,64.8569,-147.8028,20.05,76,75,4.63,US,1724007230
60,pangai,-19.8,-174.35,24.06,88,75,6.17,TO,1724007231
61,okap,19.7578,-72.2042,27.94,79,5,4.34,HT,1724007232
62,ad dabbah,18.05,30.95,37.39,32,100,5.46,SD,1724007233
63,holualoa,19.6228,-155.9522,25.86,84,20,3.09,US,1724007234
64,chonchi,-42.6128,-73.8092,8.32,60,36,3.62,CL,1724007236
65,margaret river,-33.95,115.0667,13.05,81,100,8.42,AU,1724007237
66,anadyr,64.75,177.4833,4.28,80,40,3.0,RU,1724007238
67,papatowai,-46.5619,169.4708,3.81,87,100,10.35,NZ,1724007239
68,waitangi,-43.9535,-176.5597,7.68,99,100,1.34,NZ,1724007242
69,lubang,13.8584,120.124,29.44,72,100,1.26,PH,1724007243
70,corral de bustos,-33.2821,-62.1846,18.35,52,100,3.25,AR,1724007245
71,sisimiut,66.9395,-53.6735,6.36,74,49,5.71,GL,1724007247
72,saint-pierre,-21.3393,55.4781,20.82,83,75,10.29,RE,1724007249
73,jackson,42.4165,-122.8345,21.89,62,20,0.89,US,1724007251
74,hasaki,35.7333,140.8333,26.05,94,6,1.65,JP,1724007252
75,wailua homesteads,22.0669,-159.378,25.97,78,100,7.72,US,1724007253
76,ilha de mocambique,-15.0342,40.7358,24.56,79,8,5.88,MZ,1724007254
77,san patricio,28.017,-97.5169,34.97,40,96,6.63,US,1724007255
78,kerikeri,-35.2268,173.9474,11.06,88,27,4.02,NZ,1724007257
79,cabo san lucas,22.8909,-109.9124,30.05,59,59,3.35,MX,1724007242
80,juan griego,11.0817,-63.9655,26.07,83,0,6.17,VE,1724007259
81,kurchatov,51.6601,35.6521,21.9,38,2,2.65,RU,1724007261
82,selfoss,63.9331,-20.9971,10.02,59,79,5.2,IS,1724007263
83,georgetown,5.4112,100.3354,26.96,100,20,2.57,MY,1724007264
84,mtwara,-10.2667,40.1833,24.13,80,1,7.62,TZ,1724007265
85,al ghayzah,16.2079,52.176,27.85,72,100,1.2,YE,1724007266
86,lihue,21.9789,-159.3672,26.31,79,100,7.72,US,1724007267
87,akureyri,65.6835,-18.0878,6.96,70,75,5.66,IS,1724007269
88,sompeta,18.9333,84.6,28.05,86,100,3.91,IN,1724007270
89,korla,41.7597,86.1469,31.61,19,7,6.23,CN,1724007271
90,gamay,12.3854,125.2979,24.83,90,99,1.26,PH,1724007272
91,vieste,41.8825,16.175,26.29,65,70,1.45,IT,1724007273
92,port douglas,-16.4833,145.4667,20.59,83,4,1.7,AU,1724007275
93,tofol,5.3248,163.0078,28.58,73,100,3.54,FM,1724007276
94,zhob,31.3411,69.4481,26.66,62,100,0.9,PK,1724007277
95,elliot lake,46.3834,-82.6331,18.63,77,100,3.96,CA,1724007278
96,machico,32.7,-16.7667,27.35,54,20,9.77,PT,1724007279
97,shiyan,32.6475,110.7781,22.57,93,0,1.78,CN,1724007281
98,west island,-12.1568,96.8225,25.99,78,20,4.63,CC,1724007282
99,hithadhoo,-0.6,73.0833,28.53,77,100,6.6,MV,1724007283
100,bilibino,68.0546,166.4372,4.18,98,100,1.92,RU,1724007284
101,whistler,50.1164,-122.9695,15.57,100,100,0.0,CA,1724007285
102,sinabang,2.4803,96.3801,24.74,93,100,2.5,ID,1724007288
103,nadym,65.5333,72.5167,13.08,95,100,1.56,RU,1724007289
104,vernon,50.2581,-119.2691,24.74,50,89,1.03,CA,1724007162
105,susuman,62.7833,148.1667,4.99,88,64,0.77,RU,1724007291
106,rustaq,23.3908,57.4244,30.24,77,100,3.05,OM,1724007293
107,tralee,52.2704,-9.7026,15.04,83,100,2.4,IE,1724007294
108,ribeira grande,38.5167,-28.7,26.54,78,40,2.57,PT,1724007295
109,igarape miri,-1.975,-48.9597,33.89,40,89,2.74,BR,1724007296
110,fort mcmurray,56.7268,-111.381,16.77,88,100,2.06,CA,1724007297
111,rongelap,11.1635,166.8941,28.36,79,100,6.51,MH,1724007298
112,vila franca do campo,37.7167,-25.4333,26.23,78,100,0.99,PT,1724007300
113,bethel,41.3712,-73.414,23.34,88,100,2.06,US,1724007301
114,whitehorse,60.7161,-135.0538,21.17,48,40,5.66,CA,1724007303
115,el fuerte,26.4189,-108.6194,32.83,59,78,1.08,MX,1724007306
116,ilulissat,69.2167,-51.1,6.01,70,75,2.57,GL,1724007307
117,arraial do cabo,-22.9661,-42.0278,27.98,65,0,6.69,BR,1724007308
118,sejny,54.108,23.347,22.33,65,100,3.35,PL,1724007310
119,veraval,20.9,70.3667,27.24,89,20,3.25,IN,1724007311
120,hermanus,-34.4187,19.2345,9.89,84,26,3.48,ZA,1724007313
121,puerto baquerizo moreno,-0.9,-89.6,22.55,68,75,8.23,EC,1724007314
122,ponta delgada,37.7333,-25.6667,26.4,69,40,2.57,PT,1724007316
123,mezhdurechenskiy,59.6,65.9333,11.48,96,70,1.62,RU,1724007317
124,richards bay,-28.783,32.0377,18.75,83,0,2.63,ZA,1724007318
125,vorgashor,67.5833,63.95,6.6,90,67,3.29,RU,1724007319
126,port alfred,-33.5906,26.891,16.28,76,26,1.04,ZA,1724007253
127,invercargill,-46.4,168.35,3.9,91,100,4.47,NZ,1724006866
128,labuan,5.2767,115.2417,25.2,100,20,0.0,MY,1724007323
129,enewetak,11.3474,162.3373,28.56,77,91,6.47,MH,1724007324
130,jamestown,42.097,-79.2353,24.8,77,40,6.17,US,1724007325
131,yellowknife,62.456,-114.3525,19.12,77,20,5.66,CA,1724007326
132,ust-nera,64.5667,143.2,10.24,60,100,0.86,RU,1724007327
133,coquimbo,-29.9533,-71.3436,16.66,69,75,4.63,CL,1724007173
134,boguchany,58.3814,97.4531,13.2,97,53,1.51,RU,1724007330
135,bam,29.106,58.357,35.23,21,19,4.61,IR,1724007331
136,porto novo,6.4965,2.6036,25.9,86,16,3.52,BJ,1724007332
137,charters towers,-20.1,146.2667,15.65,87,0,3.1,AU,1724007333
138,dampit,-8.2116,112.7493,18.39,96,61,2.03,ID,1724007335
139,inirida,3.8653,-67.9239,34.89,41,4,0.7,CO,1724007336
140,paimio,60.4567,22.6869,17.21,80,100,1.34,FI,1724007337
141,al jawf,29.5,38.75,32.2,20,0,2.81,SA,1724007338
142,tanumah,27.1,44.1333,36.77,12,55,1.33,SA,1724007339
143,aqaba,29.5267,35.0078,34.92,24,0,2.06,JO,1724007341
144,sitka,57.0531,-135.33,16.94,72,0,0.0,US,1724007342
145,simplicio mendes,-7.8539,-41.9103,33.95,19,82,4.17,BR,1724007343
146,lendinara,45.0843,11.5997,23.3,72,100,5.96,IT,1724007344
147,dingcheng,32.1272,115.0394,25.41,91,10,1.31,CN,1724007346
148,fort bragg,35.139,-79.006,32.04,57,40,5.14,US,1724007347
149,inari,68.906,27.0288,14.32,63,72,2.31,FI,1724007348
150,fisterra,42.9049,-9.2629,19.21,83,45,8.66,ES,1724007349
151,happy valley-goose bay,53.3168,-60.3315,21.17,78,100,5.14,CA,1724007350
152,kamin-kashyrskyi,51.6241,24.9586,22.96,56,19,2.73,UA,1724007352
153,aasiaat,68.7098,-52.8699,3.03,86,46,1.7,GL,1724007353
154,gaitania,3.0906,-75.6723,24.62,33,1,3.13,CO,1724007354
155,lagoa,39.05,-27.9833,24.62,75,2,3.81,PT,1724007355
156,barra de santo antonio,-9.4047,-35.5072,25.39,66,100,4.53,BR,1724007356
157,i-n-salah,27.1935,2.4607,39.88,17,78,1.89,DZ,1724007358
158,saipan,15.1355,145.701,28.39,89,75,4.63,MP,1724007295
159,floro,61.5996,5.0328,13.98,72,40,7.72,NO,1724007360
160,nikolayevsk-on-amure,53.1406,140.73,7.91,95,5,1.74,RU,1724007361
161,olyokminsk,60.3736,120.4264,11.1,83,52,1.39,RU,1724007362
162,ewo,-0.8725,14.8206,27.93,55,100,3.17,CG,1724007364
163,chimoio,-19.1164,33.4833,19.97,56,0,2.16,MZ,1724007365
164,hawaiian paradise park,19.5933,-154.9731,24.85,96,91,0.89,US,1724007366
165,rosetta,31.4044,30.4164,26.86,73,0,4.8,EG,1724007367
166,tolanaro,-25.0319,46.9987,22.04,73,40,6.17,MG,1724007368
167,fale old settlement,-9.3852,-171.2468,27.96,79,4,9.81,TK,1724007370
168,atafu village,-8.5421,-172.5159,28.24,77,15,9.12,TK,1724007371
169,tame,6.461,-71.73,32.0,48,60,2.07,CO,1724007372
170,vilyuchinsk,52.9306,158.4028,10.15,83,100,3.97,RU,1724007373
171,altamira,-3.2033,-52.2064,34.05,52,75,2.57,BR,1724007374
172,murun-kuren,49.6342,100.1625,16.25,56,1,1.53,MN,1724007376
173,rundu,-17.9333,19.7667,19.92,22,0,2.51,NA,1724007377
174,christchurch,-43.5333,172.6333,2.17,89,75,2.06,NZ,1724006597
175,nagqu,31.5,92.0,-1.31,58,0,1.03,CN,1724007379
176,avarua,-21.2078,-159.775,22.03,78,75,4.12,CK,1724007380
177,burao,9.5221,45.5336,25.85,43,8,10.17,SO,1724007382
178,berezovyy,51.6667,135.7,11.28,73,6,1.77,RU,1724007383
179,pacific grove,36.6177,-121.9166,22.45,87,40,4.02,US,1724007384
180,nova sintra,14.8667,-24.7167,27.26,82,66,4.67,CV,1724007385
181,westport,41.1415,-73.3579,25.18,93,100,7.2,US,1724007214
182,zhanaozen,43.3,52.8,23.96,24,0,2.53,KZ,1724007387
183,vyazemskiy,47.5378,134.7525,15.1,88,100,2.94,RU,1724007389
184,pangody,65.85,74.4859,12.57,93,100,0.52,RU,1724007390
185,tura,25.5198,90.2201,23.29,98,79,2.01,IN,1724007391
186,achinsk,56.2694,90.4993,13.78,91,100,2.53,RU,1724007177
187,panaba,21.2833,-88.2667,35.7,43,34,2.4,MX,1724007395
188,shibetsu,43.659,145.132,15.39,91,0,0.76,JP,1724007397
189,namsos,64.4662,11.4957,11.95,94,75,1.54,NO,1724007398
190,big stone gap,36.8677,-82.7745,23.01,88,76,2.26,US,1724007400
191,badger,64.8,-147.5333,21.14,74,40,4.63,US,1724007401
192,the pas,53.8251,-101.2541,22.01,56,100,5.14,CA,1724007402
193,morehead,37.2711,-87.1764,28.86,70,40,3.09,US,1724007283
194,pitimbu,-7.4706,-34.8086,25.66,72,88,6.43,BR,1724007404
195,palmer,42.1584,-72.3287,20.5,94,100,0.0,US,1724007132
196,jieshi,22.8134,115.8257,27.73,86,99,7.59,CN,1724007407
197,brandon,27.9378,-82.2859,34.58,55,100,1.54,US,1724007242
198,krutinka,56.0055,71.5113,12.5,93,24,3.17,RU,1724007409
199,iaciara,-14.0958,-46.6317,35.09,10,8,3.19,BR,1724007410
200,polyarnyy,69.1989,33.4478,10.99,78,0,0.98,RU,1724007411
201,bolama,11.5833,-15.4667,25.19,88,100,4.37,GW,1724007413
202,howrah,22.5892,88.3103,28.0,89,75,2.57,IN,1724007414
203,east london,-33.0153,27.9116,14.52,94,40,1.54,ZA,1724007415
204,dudinka,69.4058,86.1778,15.8,71,100,3.37,RU,1724007416
205,calama,-22.4667,-68.9333,22.27,10,0,6.69,CL,1724007417
206,shenjiamen,29.9576,122.298,27.55,88,100,3.2,CN,1724007419
207,muli,2.9167,73.5667,27.57,82,100,6.91,MV,1724007420
208,marica,-22.9194,-42.8186,26.97,56,0,5.08,BR,1724007421
209,kuching,1.55,110.3333,26.16,97,20,1.54,MY,1724007422
210,fresnillo,23.1667,-102.8833,23.7,32,100,5.97,MX,1724007424
211,novoazovs'k,47.1139,38.086,25.17,38,1,4.56,UA,1724007425
212,luzino,54.9481,73.0353,12.87,88,40,1.0,RU,1724007426
213,ulladulla,-35.35,150.4667,9.01,88,7,2.41,AU,1724007427
214,aykhal,66.0,111.5,13.31,68,100,3.01,RU,1724007428
215,vytegra,61.0064,36.4481,14.65,66,10,1.67,RU,1724007430
216,san antonio de pale,-1.4014,5.6325,23.66,82,2,4.13,GQ,1724007431
217,utrik,11.2278,169.8474,28.23,78,90,6.56,MH,1724007432
218,itoman,26.1247,127.6694,29.01,87,75,11.83,JP,1724007433
219,port blair,11.6667,92.75,27.58,83,94,3.44,IN,1724007434
220,negombo,7.2083,79.8358,27.03,94,20,2.57,LK,1724007436
221,tazovsky,67.4667,78.7,10.6,91,100,2.7,RU,1724007437
222,kawambwa,-9.7915,29.0791,19.08,38,3,0.91,ZM,1724007438
223,fada,7.25,4.0667,28.37,69,75,3.09,NG,1724007439
224,burang,30.25,81.1667,11.52,78,100,1.92,CN,1724007440
225,baie-comeau,49.2168,-68.1489,21.82,78,0,2.57,CA,1724007442
226,madinat ash shamal,26.1293,51.2009,33.09,78,40,4.33,QA,1724007443
227,roma,43.2128,-75.4557,24.82,92,100,4.12,US,1724007063
228,island harbour,50.724,-1.2758,19.43,72,7,2.24,GB,1724007446
229,xudat,41.631,48.681,22.64,69,0,4.61,AZ,1724007448
230,geraldton,-28.7667,114.6,15.23,67,100,5.66,AU,1724007449
231,vadso,70.0744,29.7487,13.09,82,0,4.63,NO,1724007450
232,auki,-8.7676,160.7034,25.29,91,100,1.89,SB,1724007451
233,udachny,66.4167,112.4,13.91,66,41,3.05,RU,1724007452
234,touros,-5.1989,-35.4608,26.65,68,91,7.8,BR,1724007192
235,santa cruz,-17.8,-63.1667,35.7,43,20,10.29,BO,1724007421
236,villa canas,-34.0057,-61.6076,15.53,76,100,3.06,AR,1724007456
237,pandan,14.0453,124.1694,26.83,83,99,2.42,PH,1724007457
238,afaahiti,-17.75,-149.2833,22.86,81,98,12.64,PF,1724007458
239,kosh-agach,50.0,88.6667,13.86,61,100,1.93,RU,1724007460
240,san rafael,-34.6177,-68.3301,10.0,56,100,6.62,AR,1724007461
241,deqen,29.9618,90.7188,6.18,69,0,0.94,CN,1724007462
242,gidole,5.65,37.3667,15.93,63,91,1.38,ET,1724007463
243,mugia,43.1041,-9.2179,20.51,84,50,8.61,ES,1724007464
244,rurrenabaque,-14.4413,-67.5278,33.94,49,20,2.06,BO,1724007466
245,maragogi,-9.0122,-35.2225,24.98,74,100,5.02,BR,1724007467
246,bikenibeu village,1.3673,173.1241,27.98,83,40,3.6,KI,1724007468
247,nungua,5.6011,-0.0771,25.23,78,0,6.17,GH,1724007469
248,vila velha,-20.3297,-40.2925,27.97,60,0,6.69,BR,1724007301
249,rabigh,22.7986,39.0349,32.18,56,17,1.05,SA,1724007473
250,wewak,-3.5534,143.6268,26.07,88,93,2.98,PG,1724007474
251,ha giang,22.8333,104.9833,24.51,96,88,1.45,VN,1724007475
252,rengasdengklok,-6.1592,107.2981,23.79,87,19,2.18,ID,1724007476
253,mirnyy,62.5353,113.9611,13.52,68,100,1.9,RU,1724007477
254,atascadero,35.4894,-120.6707,26.01,59,0,1.79,US,1724007479
255,atbara,17.7022,33.9864,30.19,57,67,9.25,SD,1724007480
256,kirishi,59.4471,32.0205,13.75,77,8,1.67,RU,1724007481
257,bamboo flat,11.7,92.7167,27.05,83,93,3.29,IN,1724007482
258,tarko-sale,64.9225,77.785,15.41,70,65,3.69,RU,1724007483
259,toliara,-23.35,43.6667,22.31,65,0,1.39,MG,1724007485
260,zambezi,-13.5432,23.1047,18.72,11,0,3.01,ZM,1724007486
261,mermoz boabab,14.7065,-17.4758,28.88,79,75,3.09,SN,1724007487
262,quelimane,-17.8786,36.8883,22.97,78,0,2.24,MZ,1724007489
263,bodaybo,57.8506,114.1933,16.24,81,100,1.33,RU,1724007491
264,kodiak,57.79,-152.4072,17.73,77,40,5.66,US,1724007492
265,birao,10.2849,22.7882,21.82,91,100,3.49,CF,1724007493
266,svetlyy,54.675,20.1347,22.84,73,100,2.23,RU,1724007494
267,mount gambier,-37.8333,140.7667,9.33,85,100,2.16,AU,1724007495
268,nuuk,64.1835,-51.7216,6.6,75,5,4.92,GL,1724007497
269,el charco,2.4769,-78.1105,28.36,76,93,4.17,CO,1724007498
270,bandon,51.7469,-8.7425,17.77,77,100,4.77,IE,1724007500
271,youghal,51.95,-7.8506,17.18,73,33,6.43,IE,1724007501
272,ghadamis,30.1337,9.5007,35.73,20,0,4.58,LY,1724007503
273,villanueva,15.3167,-88.0,32.55,58,40,3.09,HN,1724007504
274,bowen,-20.0167,148.2333,17.42,67,4,2.82,AU,1724007505
275,salinopolis,-0.6136,-47.3561,28.4,70,52,5.06,BR,1724007506
276,tromso,69.6496,18.957,15.01,67,100,0.0,NO,1724007507
277,minas de marcona,-15.2119,-75.1103,18.73,48,2,6.18,PE,1724007509
278,castillos,-34.1667,-53.8333,13.54,96,100,5.11,UY,1724007510
279,tarinkot,32.6268,65.8733,29.84,26,0,1.44,AF,1724007511
280,farmville,37.3021,-78.3919,29.13,37,24,3.3,US,1724007512
281,kone,-21.0595,164.8658,20.54,94,65,0.17,NC,1724007513
282,ancud,-41.8697,-73.8203,8.4,61,12,5.21,CL,1724007514
283,cockburn town,21.4612,-71.1419,29.19,75,0,5.27,TC,1724007516
284,carutapera,-1.195,-46.02,28.84,65,100,4.95,BR,1724007517
285,as sulayyil,20.4607,45.5779,37.22,13,7,2.11,SA,1724007518
286,gulf shores,30.246,-87.7008,35.19,66,0,3.09,US,1724007519
287,nyurba,63.2842,118.3319,11.69,58,45,2.2,RU,1724007520
288,nabire,-3.3667,135.4833,23.41,92,100,1.52,ID,1724007522
289,paicandu,-23.4575,-52.0486,36.37,13,0,4.12,BR,1724007523
290,itamaraca,-7.7478,-34.8256,26.28,66,95,5.07,BR,1724007524
291,buturlinovka,50.8239,40.6092,21.29,37,0,1.54,RU,1724007424
292,karratha,-20.7377,116.8463,18.51,43,0,4.66,AU,1724007526
293,nephi,39.7102,-111.8363,30.23,29,28,4.75,US,1724007528
294,okhotsk,59.3833,143.3,11.9,75,26,2.54,RU,1724007529
295,faliraki,36.3398,28.1994,27.98,78,0,7.2,GR,1724007530
296,tshabong,-26.05,22.45,18.08,20,0,2.55,BW,1724007531
297,morondava,-20.2833,44.2833,23.5,62,4,4.72,MG,1724007532
298,newnham,-41.3833,147.1333,4.53,87,100,2.57,AU,1724007534
299,nicoya,10.1483,-85.452,28.67,77,100,1.1,CR,1724007537
300,cayiralan,39.3028,35.6439,21.28,37,7,2.55,TR,1724007538
301,paita,-5.0892,-81.1144,20.41,70,7,8.32,PE,1724007540
302,smithers,54.7804,-127.1743,19.18,39,20,1.03,CA,1724007545
303,sao vicente,-23.9631,-46.3919,25.98,26,29,2.06,BR,1724007546
304,katsuren-haebaru,26.3369,127.8719,29.01,90,40,5.66,JP,1724007547
305,singkil,-7.9855,111.4161,20.73,93,79,2.47,ID,1724007548
306,mil'kovo,55.6078,37.7956,22.02,58,0,1.81,RU,1724007550
307,latehar,23.75,84.5,25.12,87,8,0.97,IN,1724007551
308,antalaha,-14.9003,50.2788,21.08,85,17,4.92,MG,1724007552
309,garachico,28.7781,-17.7646,23.06,78,20,6.69,ES,1724007553
310,mahina,-17.5065,-149.489,26.87,78,75,2.06,PF,1724007554
311,cortina d'ampezzo,46.5384,12.1377,16.31,94,100,1.14,IT,1724007556
312,hami,42.8,93.45,32.99,11,0,7.99,CN,1724007557
313,gondar,12.6,37.4667,14.12,97,99,1.72,ET,1724007558
314,akashi,34.6333,134.9833,26.38,82,92,3.05,JP,1724007559
315,nouadhibou,20.931,-17.0347,23.99,78,90,10.29,MR,1724007560
316,beyneu,45.3167,55.2,24.79,32,0,2.7,KZ,1724007562
317,sanctuary point,-35.1114,150.629,9.54,87,14,2.93,AU,1724007563
318,ciudad lazaro cardenas,17.9583,-102.2,30.99,64,100,3.4,MX,1724007564
319,klaksvik,62.2266,-6.589,10.64,81,10,8.97,FO,1724007565
320,gadzhiyevo,69.2551,33.3362,10.69,79,0,1.1,RU,1724007568
321,yonggwang-up,40.0183,127.4547,23.09,95,71,1.03,KP,1724007569
322,serang,-6.1149,106.1502,24.26,88,21,0.6,ID,1724007570
323,ahvaz,31.3203,48.6693,36.97,63,0,4.12,IR,1724007494
324,bosaso,11.2842,49.1816,33.68,46,26,3.6,SO,1724007572
325,nar'yan-mar,67.6713,53.087,6.64,93,76,3.37,RU,1724007574
326,mudgee,-32.5943,149.5871,8.01,94,66,1.68,AU,1724007575
327,santa marta,11.2408,-74.199,32.16,73,20,2.57,CO,1724007577
328,alofi,-19.0595,-169.9187,22.94,83,40,5.66,NU,1724007578
329,basoko,1.2391,23.616,22.85,90,98,1.63,CD,1724007580
330,carnarvon,-24.8667,113.6333,18.42,55,100,4.7,AU,1724007581
331,orsa,54.5153,30.4053,21.33,67,3,1.45,BY,1724007582
332,cotija de la paz,19.8167,-102.6833,23.66,73,39,0.75,MX,1724007583
333,weno,7.4515,151.8468,29.19,72,67,2.45,FM,1724007584
334,ocean shores,46.9737,-124.1563,19.14,84,100,3.6,US,1724007524
335,magadan,59.5667,150.8,9.23,83,70,1.76,RU,1724007587
336,posto fiscal rolim de moura,-13.0833,-62.2667,38.97,19,99,1.52,BR,1724007588
337,waingapu,-9.6567,120.2641,21.91,83,75,2.53,ID,1724007589
338,kintinku,-5.8833,35.2333,24.9,35,7,4.28,TZ,1724007590
339,st. john's,47.5649,-52.7093,27.93,47,75,8.75,CA,1724007591
340,rio verde,21.9333,-99.9833,28.78,48,100,2.06,MX,1724007379
341,delogozda,41.2572,20.7236,17.38,88,20,4.12,MK,1724007594
342,rexburg,43.826,-111.7897,30.56,24,0,4.65,US,1724007595
343,tarfaya,27.9358,-12.9218,22.48,90,6,7.2,MA,1724007596
344,camana,-16.6228,-72.7111,19.06,71,13,4.49,PE,1724007597
345,opuwo,-18.0607,13.84,22.91,15,13,3.67,NA,1724007599
346,santa vitoria do palmar,-33.5189,-53.3681,14.33,94,100,5.77,BR,1724007600
347,gursarai,25.6148,79.1788,29.41,73,65,2.97,IN,1724007601
348,hengchun,22.0042,120.7439,27.51,84,100,5.68,TW,1724007603
349,kenai,60.5544,-151.2583,15.05,99,100,4.12,US,1724007604
350,constantia,44.1833,28.65,23.38,71,38,1.81,RO,1724007605
351,ambovombe,-25.1667,46.0833,18.67,69,0,4.89,MG,1724007606
352,kayangel,8.0823,134.7173,29.07,70,81,0.58,PW,1724007607
353,bubaque,11.2833,-15.8333,25.39,87,100,5.11,GW,1724007609
354,arteche,12.2645,125.4048,26.0,85,100,1.26,PH,1724007610
355,laojunmiao,39.8333,97.7333,19.86,20,0,7.22,CN,1724007611
356,jiagedaqi,50.4167,124.1167,11.83,72,58,1.88,CN,1724007612
357,rajpipla,21.8667,73.5,27.38,81,100,2.09,IN,1724007614
358,hammerfest,70.6634,23.6821,16.25,67,100,3.09,NO,1724007615
359,albu kamal,34.45,40.9186,35.93,20,0,2.17,SY,1724007616
360,prado,-17.3411,-39.2208,24.89,70,0,3.59,BR,1724007618
361,trenggalek,-8.05,111.7167,21.79,91,94,1.14,ID,1724007619
362,campo gallo,-26.5833,-62.85,29.95,31,0,1.45,AR,1724007621
363,bathsheba,13.2167,-59.5167,31.34,74,20,5.66,BB,1724007622
364,khovd,48.0056,91.6419,23.03,37,33,2.58,MN,1724007624
365,mar del plata,-38.0023,-57.5575,14.01,89,0,3.6,AR,1724007588
366,margate,51.3813,1.3862,20.94,56,8,3.34,GB,1724007626
367,souq larb'a al gharb,34.6866,-6.0027,29.31,40,0,4.45,MA,1724007627
368,kholmsk,47.0511,142.0569,16.87,95,100,2.32,RU,1724007628
369,chibougamau,49.9168,-74.3659,17.79,100,100,2.57,CA,1724007630
370,novyy buh,47.6931,32.5216,25.09,30,83,4.59,UA,1724007631
371,angaur state,6.906,134.13,28.81,70,40,0.47,PW,1724007632
372,praia da vitoria,38.7333,-27.0667,27.64,78,40,1.44,PT,1724007633
373,wusong,30.95,117.7833,26.54,87,100,0.98,CN,1724007634
374,queenstown,-31.8976,26.8753,10.41,56,0,1.51,ZA,1724007637
375,beau vallon,-20.4189,57.6953,22.13,78,40,6.69,MU,1724007638
376,kleinblittersdorf,49.1578,7.0373,20.71,80,40,1.54,DE,1724007639
377,bozeman,45.6796,-111.0386,29.56,35,0,2.06,US,1724007606
378,alotau,-10.3069,150.4462,23.88,96,44,1.48,PG,1724007642
379,uturoa,-16.7333,-151.4333,25.04,80,100,12.08,PF,1724007643
380,tamanrasset,22.785,5.5228,22.95,68,40,4.63,DZ,1724007644
381,ambikapur,23.1167,83.2,23.82,89,60,0.58,IN,1724007645
382,ola,59.5833,151.2833,10.02,82,98,0.93,RU,1724007646
383,thomaston,32.8882,-84.3266,33.38,53,40,4.12,US,1724007648
384,fortuna,40.5982,-124.1573,20.75,74,20,5.14,US,1724007649
385,porto santo stefano,42.4338,11.1237,20.77,83,57,6.69,IT,1724007650
386,forster,-32.1667,152.5167,11.27,97,91,2.79,AU,1724007651
387,bereznik,62.8551,42.7072,12.68,98,100,1.91,RU,1724007652
388,remire-montjoly,4.9167,-52.2667,32.02,66,75,5.14,GF,1724007654
389,belomorsk,64.5232,34.7668,12.32,93,2,1.29,RU,1724007655
390,sao felipe,-14.8167,-41.3833,31.04,25,5,5.46,BR,1724007629
391,lorengau,-2.0226,147.2712,27.68,81,100,4.39,PG,1724007657
392,glace bay,46.1969,-59.957,26.55,60,75,4.47,CA,1724007660
393,petropavlovsk-kamchatsky,53.0452,158.6483,9.33,76,75,3.0,RU,1724007661
394,banjar,-8.19,114.9675,22.32,85,81,3.39,ID,1724007662
395,kourou,5.1552,-52.6478,29.76,63,24,3.6,GF,1724007663
396,guiuan,11.0333,125.7247,29.15,73,100,3.38,PH,1724007665
397,nova vicosa,-17.8919,-39.3719,25.7,62,0,4.36,BR,1724007666
398,bredy,52.4153,60.3411,14.35,77,100,1.95,RU,1724007667
399,kanggye,40.9695,126.5852,21.3,96,99,1.34,KP,1724007668
400,conception bay south,47.4999,-52.9981,27.53,56,14,5.72,CA,1724007664
401,magong,23.5654,119.5863,27.59,84,77,5.9,TW,1724007671
402,hauterive,46.0901,3.4459,15.85,77,66,2.55,FR,1724007672
403,keflavik,64.0049,-22.5624,10.24,66,75,6.69,IS,1724007673
404,buka,40.8108,69.1986,20.87,37,0,0.82,UZ,1724007674
405,marcos juarez,-32.6978,-62.1067,19.01,51,100,4.4,AR,1724007456
406,fuglafjordur,62.244,-6.814,9.87,83,6,8.41,FO,1724007677
407,kolonia,50.9333,6.95,21.36,75,100,2.47,DE,1724007604
408,mount isa,-20.7333,139.5,5.87,52,2,0.0,AU,1724007679
409,viedma,-40.8135,-62.9967,9.2,55,100,6.46,AR,1724007623
410,warrnambool,-38.3833,142.4833,7.5,91,0,3.79,AU,1724007682
411,jaltepec,19.7333,-98.6333,21.11,46,49,2.5,MX,1724007683
412,qamdo,31.1667,97.2333,3.12,55,1,0.78,CN,1724007686
413,irymple,-34.25,142.1667,9.23,75,1,3.04,AU,1724007687
414,bardai,11.65,7.2333,22.47,90,100,3.01,NG,1724007688
415,kodinsk,58.6881,99.1844,12.23,98,21,1.67,RU,1724007689
416,ta`u,-14.2336,-169.5144,25.89,85,32,11.25,AS,1724007691
417,necochea,-38.5473,-58.7368,9.07,94,100,5.39,AR,1724007602
418,mejit,10.2753,170.8646,28.35,76,67,5.47,MH,1724007694
419,okha,53.5739,142.9478,9.56,90,8,4.29,RU,1724007695
420,cachoeiro de itapemirim,-20.8489,-41.1128,28.97,37,0,3.43,BR,1724007650
421,ranot,7.7777,100.3213,27.1,81,96,2.14,TH,1724007697
422,ilhabela,-23.7781,-45.3581,24.3,59,5,1.25,BR,1724007699
423,las khorey,11.1595,48.1967,32.07,59,73,4.67,SO,1724007700
424,lebu,-37.6167,-73.65,8.95,63,9,5.93,CL,1724007658
425,kavaratti,10.5669,72.642,26.52,91,95,7.2,IN,1724007702
426,fort st. john,56.2499,-120.8529,17.94,63,75,1.54,CA,1724007606
427,ulsteinvik,62.3432,5.8487,14.31,78,84,7.15,NO,1724007705
428,itaituba,-4.2761,-55.9836,35.09,49,20,3.6,BR,1724007620
429,choyr,46.3611,108.3611,14.24,90,1,4.67,MN,1724007707
430,constitucion,-35.3333,-72.4167,10.99,57,100,3.59,CL,1724007612
431,launceston,-41.45,147.1667,4.8,87,100,2.57,AU,1724007709
432,sapiranga,-29.6381,-51.0069,30.46,56,0,1.23,BR,1724007000
433,katabu,-4.9333,122.5167,21.7,92,8,1.73,ID,1724007712
434,aligudarz,33.4006,49.6949,24.26,27,0,0.55,IR,1724007713
435,greymouth,-42.4667,171.2,7.68,76,98,8.75,NZ,1724007714
436,rodolfo sanchez taboada,31.7167,-116.5667,23.94,57,1,1.79,MX,1724007715
437,mo i rana,66.3128,14.1428,12.96,93,75,0.0,NO,1724007716
438,turbat,26.0023,63.044,28.63,74,100,1.19,PK,1724007718
439,kill devil hills,36.0307,-75.676,31.01,65,40,8.75,US,1724007719
440,manokwari,-0.8667,134.0833,25.72,78,100,1.2,ID,1724007720
441,sarupathar,26.1984,93.8094,24.04,98,100,1.2,IN,1724007721
442,guangyuan,32.442,105.823,23.02,85,0,1.05,CN,1724007722
443,lompoc,34.6391,-120.4579,26.44,74,0,3.58,US,1724007645
444,moussoro,13.6408,16.4901,29.07,67,59,7.86,TD,1724007725
445,butajira,8.1167,38.3667,15.14,91,80,1.59,ET,1724007726
446,tsiombe,-25.3,45.4833,19.49,70,0,4.68,MG,1724007727
447,port saint john's,-31.6229,29.5448,17.2,80,0,0.64,ZA,1724007728
448,thunder bay,48.4001,-89.3168,22.99,53,75,3.6,CA,1724007651
449,jiangyou,31.7667,104.7167,23.52,79,0,1.84,CN,1724007731
450,uliastay,47.7417,96.8444,16.52,33,15,3.46,MN,1724007732
451,lerwick,60.1545,-1.1494,11.71,84,12,9.57,GB,1724007733
452,tazacorte,28.629,-17.9293,24.54,78,20,6.69,ES,1724007734
453,imbituba,-28.24,-48.6703,20.01,81,0,4.36,BR,1724007736
454,guerrero negro,27.9769,-114.0611,25.43,55,0,5.92,MX,1724007737
455,aktobe,50.2797,57.2072,17.05,77,20,3.0,KZ,1724007738
456,amungan,15.3652,119.9582,27.82,77,100,1.38,PH,1724007740
457,peterhead,57.5058,-1.7981,13.42,69,45,4.83,GB,1724007742
458,grand rapids,42.9634,-85.6681,25.68,72,75,4.12,US,1724007699
459,tarrafal,15.2833,-23.7667,27.11,84,94,4.49,CV,1724007744
460,mount pearl,47.5166,-52.7813,27.19,53,75,8.75,CA,1724007745
461,mogadishu,2.0371,45.3438,24.7,85,100,8.63,SO,1724007506
462,porto franco,-6.3383,-47.3992,39.6,16,9,0.83,BR,1724007670
463,masvingo,-20.0637,30.8277,19.03,27,0,3.09,ZW,1724007749
464,brisas de zicatela,15.8369,-97.0419,31.29,79,75,3.6,MX,1724007750
465,vegreville,53.5001,-112.0518,20.03,74,56,1.03,CA,1724007751
466,grahamstown,-33.3042,26.5328,9.67,93,0,1.31,ZA,1724007752
467,kabinda,-6.1333,24.4833,23.53,30,0,0.65,CD,1724007753
468,rikaze,29.25,88.8833,13.17,42,1,1.58,CN,1724007755
469,nanzhang chengguanzhen,31.7839,111.8275,24.69,84,100,2.01,CN,1724007756
470,banda aceh,5.5577,95.3222,25.35,84,100,6.91,ID,1724007757
471,puerto santa,-8.9906,-78.6456,19.24,73,1,5.21,PE,1724007758
472,el calafate,-50.3408,-72.2768,3.97,70,11,2.45,AR,1724007759
473,costa rica,-23.4167,-54.65,36.5,13,0,4.28,BR,1724007761
474,mehrabpur,28.1085,68.0254,27.57,89,99,5.85,PK,1724007762
475,woodward,36.4337,-99.3904,43.31,24,33,4.6,US,1724007734
476,lake city,30.1897,-82.6393,34.27,48,0,3.6,US,1724007719
477,malango,-2.9627,119.9001,17.93,98,96,0.98,ID,1724007765
478,el quebrachal,-25.2833,-64.0667,28.19,33,0,2.71,AR,1724007767
479,quellon,-43.1167,-73.6167,7.9,63,3,5.11,CL,1724007768
480,trois-rivieres,46.3501,-72.5491,24.7,74,75,5.14,CA,1724007653
481,lycksele,64.5954,18.6735,14.93,77,75,4.12,SE,1724007770
482,virar,19.4667,72.8,27.87,84,85,1.52,IN,1724007771
483,bontoc,17.0899,120.978,21.08,94,100,0.63,PH,1724007773
484,malanje,-9.5402,16.341,24.0,16,0,1.5,AO,1724007774
485,east ballina,-28.8667,153.5833,13.04,90,34,4.63,AU,1724007775
486,kaka,37.3482,59.6143,26.2,26,0,1.87,TM,1724007776
487,police,53.5521,14.5718,19.26,81,100,0.89,PL,1724007777
488,tvoroyri,61.5556,-6.8111,10.73,84,7,10.84,FO,1724007779
489,jining,35.405,116.5814,23.83,97,92,2.14,CN,1724007780
490,raton,36.9034,-104.4391,31.34,23,0,5.66,US,1724007782
491,sarangani,5.4033,125.4636,28.5,74,44,2.47,PH,1724007783
492,byron bay,-28.65,153.6167,12.21,93,30,4.25,AU,1724007785
493,revda,56.801,59.9303,12.18,96,99,3.77,RU,1724007786
494,geneina,13.45,22.45,21.2,83,99,2.66,SD,1724007787
495,mora,11.0461,14.1401,20.85,97,100,3.4,CM,1724007788
496,khandyga,62.6667,135.6,8.41,74,82,1.51,RU,1724007791
497,tsetserleg,47.475,101.4542,10.79,65,0,1.12,MN,1724007792
498,alliance,40.9153,-81.1059,22.65,90,91,3.61,US,1724007505
499,cooper's town,26.8667,-77.5167,28.01,63,100,2.19,BS,1724007794
500,la'ie,21.6477,-157.9253,26.17,82,69,3.13,US,1724007795
501,gobabis,-22.45,18.9667,18.58,16,0,4.22,NA,1724007797
502,paya,18.25,-70.3,31.51,62,47,5.64,DO,1724007798
503,bodo,67.28,14.405,13.02,90,75,2.57,NO,1724007799
504,betioky,-23.7167,44.3833,21.18,48,0,4.94,MG,1724007800
505,tual,-5.6667,132.75,25.52,82,92,7.29,ID,1724007801
506,colonia,50.9333,6.95,21.36,75,100,2.47,DE,1724007604
507,urzhar,47.093,81.6294,19.57,74,100,0.34,KZ,1724007804
508,crane,31.3974,-102.3501,35.87,26,3,6.33,US,1724007805
509,puerto leguizamo,-0.1934,-74.7819,33.84,42,53,0.32,CO,1724007806
510,konstantinovka,49.6167,127.9833,13.61,66,100,2.63,RU,1724007807
511,yulinshi,38.2906,109.7494,19.68,71,0,1.75,CN,1724007809
512,robore,-18.3333,-59.75,37.31,22,10,4.91,BO,1724007810
513,novodvinsk,64.4165,40.8122,12.86,98,100,1.97,RU,1724007811
514,yazman,29.1212,71.7446,31.42,67,75,4.63,PK,1724007812
515,todos santos,23.45,-110.2167,29.13,75,84,3.5,MX,1724007813
516,lianhe,47.1333,129.2667,17.29,99,100,1.2,CN,1724007815
517,suva,-18.1416,178.4415,19.71,100,20,1.03,FJ,1724007629
518,kalmunai,7.4167,81.8167,28.02,80,100,2.19,LK,1724007817
519,erenhot,43.6475,111.9767,19.11,75,53,1.85,CN,1724007818
520,kristiansund,63.1115,7.732,13.36,67,75,5.14,NO,1724007819
521,kismayo,-0.3582,42.5454,24.76,81,96,7.91,SO,1724007821
522,luwuk,-0.9516,122.7875,21.92,91,37,1.73,ID,1724007822
523,igarka,67.4667,86.5833,12.2,93,24,2.82,RU,1724007823
524,trat,12.5,102.5,25.6,93,100,0.64,TH,1724007824
525,igrim,63.1906,64.4162,12.54,97,100,1.96,RU,1724007825
526,piacabucu,-10.4056,-36.4344,25.68,67,43,3.71,BR,1724007827
527,hanzhong,33.0728,107.0303,21.08,79,0,0.53,CN,1724007828
528,juegang,32.3174,121.1855,26.12,87,92,3.23,CN,1724007830
529,tionk essil,12.7856,-16.5217,25.03,90,100,3.02,SN,1724007831
530,liperi,62.5333,29.3667,12.26,94,0,0.51,FI,1724007833
531,tanjung selor,2.8372,117.3642,23.32,96,72,1.07,ID,1724007834
532,princeville,45.7668,-61.2985,25.84,66,0,4.63,CA,1724007835
533,seryshevo,51.0933,128.3786,11.78,70,60,3.23,RU,1724007836
534,prainha,-1.8,-53.48,35.98,27,30,0.94,BR,1724007837
535,puerto armuelles,8.2833,-82.8667,27.83,79,100,2.24,PA,1724007839
536,aketi,2.7388,23.7833,21.2,96,89,0.78,CD,1724007840
537,juneau,58.3019,-134.4197,18.0,68,20,3.09,US,1724007841
538,long beach,33.767,-118.1892,27.86,68,0,4.02,US,1724007800
539,murzuq,25.9155,13.9184,37.08,19,12,4.3,LY,1724007843
540,san mariano,7.5,126.0,22.52,95,100,0.75,PH,1724007845
541,pervomayskiy,53.2485,40.2871,20.67,69,11,1.96,RU,1724007846
542,coahuayana de hidalgo,18.7,-103.6583,33.61,52,91,2.83,MX,1724007847
543,permet,40.2336,20.3517,19.94,81,100,1.82,AL,1724007848
544,anisoc,1.8658,10.7689,22.4,96,100,0.83,GQ,1724007849
545,banganapalle,15.3167,78.2333,29.58,66,81,2.06,IN,1724007851
546,broken hill,-31.95,141.4333,9.93,70,56,4.08,AU,1724007756
547,nemuro,43.3236,145.575,16.47,93,60,1.73,JP,1724007853
548,zouerate,22.7187,-12.4521,39.31,25,96,6.86,MR,1724007854
549,taco pozo,-25.6167,-63.2833,29.39,33,0,2.21,AR,1724007857
550,lazaro cardenas,17.9583,-102.2,30.99,64,100,3.4,MX,1724007689
551,woolgoolga,-30.1106,153.2007,14.93,78,100,6.1,AU,1724007859
552,chui,-33.6971,-53.4616,14.16,95,100,6.25,UY,1724007860
553,portland,45.5234,-122.6762,24.02,66,0,1.79,US,1724007606
554,kitimat,54.0524,-128.6534,26.49,43,9,1.79,CA,1724007863
555,arvayheer,46.2639,102.775,11.86,70,0,0.45,MN,1724007864
556,almeirim,-1.5233,-52.5817,36.09,29,53,2.81,BR,1724007865
557,gamba,-2.65,10.0,22.66,86,100,2.92,GA,1724007866
558,norrtalje,59.758,18.705,17.79,65,100,3.73,SE,1724007867
559,puerto aysen,-45.4,-72.7,6.11,81,31,1.17,CL,1724007868
560,sittwe,20.15,92.9,26.64,85,100,2.92,MM,1724007870
561,bathurst,-33.4166,149.5806,8.87,91,100,1.17,AU,1724007871
562,dalhart,36.0595,-102.5133,36.01,23,0,8.23,US,1724007872
